Origin,Percentage_airline_flights,percent_delayed,percent_diverted_cancelled,PercentAirlineFault,HolidayPercentDelayed,HowExtremeDelay,ScoreFrom_percent_delayed,ScoreFrom_percent_diverted_cancelled,ScoreFrom_PercentAirlineFault,ScoreFrom_HolidayPercentDelayed,ScoreFrom_HowExtremeDelay,ScoreFrom_Size,TotalScore,IATA,Name,State,Latitude,Longitude
ABQ,0.0004947363806589388,0.6582278481012658,0.02531645569620253,0.17928115135268527,0.75,48.59615384615385,0.25,0.5,1.0,0.25,0.5,0.0,2.5,ABQ,Albuquerque International Sunport Airport,New Mexico,35.03893,-106.60826
ALB,0.0013088595387052936,0.3875598086124402,0.05263157894736842,0.06440026306070086,0.3333333333333333,62.95061728395062,0.5,0.25,1.0,0.5,0.25,0.0,2.5,ALB,Albany International Airport,New York,42.74912,-73.80198
ATL,0.05356930379945015,0.5507364975450082,0.024900631283610006,0.4298772188603529,0.5472779369627507,55.981744852472936,0.25,0.5,0.25,0.25,0.25,0.5,2.0,ATL,Hartsfield - Jackson Atlanta International Airport,Georgia,33.6367,-84.42786
AUS,0.0024110570449834357,0.44935064935064933,0.01818181818181818,0.16668880583123036,0.6666666666666666,49.50867052023121,0.25,0.5,1.0,0.25,0.5,0.25,2.75,AUS,Austin-Bergstrom International Airport,Texas,30.19453,-97.66988
BDL,0.008579605588642356,0.583941605839416,0.020437956204379562,0.22151998172988918,0.47368421052631576,68.86125,0.25,0.5,0.5,0.25,0.25,0.5,2.25,BDL,Bradley International Airport,Connecticut,41.93903,-72.68432
BIS,0.00038827412152980003,0.3870967741935484,0.0,0.07492848970251717,0.0,33.291666666666664,0.5,1.0,1.0,1.0,1.0,0.0,4.5,BIS,Bismarck Municipal Airport,North Dakota,46.77273,-100.74574
BKG,0.00029433683406291294,0.425531914893617,0.0,0.10653729699972474,0.0,52.25,0.5,1.0,1.0,1.0,0.25,0.0,3.75,BKG,Branson Airport,Missouri,36.53208,-93.20054
BMI,0.0007953357005529775,0.30708661417322836,0.015748031496062992,0.17567798066844637,0.2222222222222222,59.23076923076923,1.0,1.0,1.0,1.0,0.25,0.0,4.25,BMI,Central Il Regional/Bloomington-Normal Airport,Illinois,40.47711,-88.91592
BNA,0.0066257100093311035,0.4914933837429111,0.02551984877126654,0.24846142550479117,0.4418604651162791,38.87307692307692,0.25,0.5,0.5,0.25,0.5,0.25,2.25,BNA,Nashville International Airport,Tennessee,36.12447,-86.67818
BOS,0.0038890037011291264,0.5571658615136876,0.02576489533011272,0.3346593172623739,0.5238095238095238,54.79479768786127,0.25,0.5,0.25,0.25,0.25,0.25,1.75,BOS,General Edward Lawrence Logan International Airport,Massachusetts,42.36294,-71.00639
BQN,0.0016783462027417163,0.6716417910447762,0.03731343283582089,0.2908340859213747,0.7142857142857143,66.91111111111111,0.25,0.25,0.5,0.25,0.25,0.25,1.75,BQN,Rafael Hernandez Airport,Puerto Rico,18.49486,-67.12944
BTV,0.00038827412152980003,0.532258064516129,0.016129032258064516,0.15724882770903917,0.25,88.63636363636364,0.25,1.0,1.0,1.0,0.25,0.0,3.5,BTV,Patrick Leahy Burlington International Airport,Vermont,44.5,-73.2
BUF,0.009111916884288048,0.4845360824742268,0.052920962199312714,0.24258726788585344,0.3548387096774194,52.00709219858156,0.25,0.25,0.5,0.5,0.25,0.5,2.25,BUF,Buffalo Niagara International Airport,New York,42.94043,-78.73057
BUR,0.0014027968261721808,0.45089285714285715,0.013392857142857142,0.18485885219787512,0.46153846153846156,33.21782178217822,0.25,1.0,1.0,0.25,1.0,0.25,3.75,BUR,Bob Hope Airport,California,34.20069,-118.35867
BWI,0.011861148164152279,0.44561774023231254,0.027455121436114043,0.23410644812926457,0.41333333333333333,57.10663507109005,0.25,0.5,0.5,0.5,0.25,0.5,2.5,BWI,Baltimore/Washington International Thurgood Marshall Airport,Maryland,39.17573,-76.66899
CHS,0.0005698862106324485,0.4835164835164835,0.03296703296703297,0.10303275872931154,0.5,58.25,0.25,0.25,1.0,0.25,0.25,0.0,2.0,CHS,Charleston Afb/International Airport,South Carolina,32.89864,-80.04053
CID,0.0014466342269900615,0.38095238095238093,0.008658008658008658,0.12237659171450448,0.3333333333333333,39.0,0.5,1.0,1.0,0.5,0.5,0.25,3.75,CID,The Eastern Iowa Airport,Iowa,41.9,-91.7
CLE,0.022469799162079397,0.4673913043478261,0.03260869565217391,0.31924274442272516,0.4225352112676056,52.865235539654144,0.25,0.25,0.5,0.5,0.25,0.5,2.25,CLE,Cleveland-Hopkins International Airport,Ohio,41.40941,-81.85469
CLT,0.008905254851860897,0.4338959212376934,0.02812939521800281,0.28630244988214354,0.41509433962264153,46.49108589951378,0.5,0.5,0.5,0.5,0.5,0.5,3.0,CLT,Charlotte/Douglas International Airport,North Carolina,35.21375,-80.94906
CMH,0.0017910709477019808,0.4405594405594406,0.038461538461538464,0.2005984332749569,0.3,49.06349206349206,0.25,0.25,1.0,0.5,0.5,0.25,2.75,CMH,John Glenn Columbus International Airport,Ohio,39.99695,-82.89216
COS,0.0017660210043774775,0.475177304964539,0.031914893617021274,0.19096782455577607,0.3333333333333333,52.02985074626866,0.25,0.25,1.0,0.5,0.25,0.25,2.5,COS,City Of Colorado Springs Municipal Airport,Colorado,38.80582,-104.70078
CVG,0.019006644497466824,0.4438220757825371,0.02471169686985173,0.19595125440875524,0.46153846153846156,57.60653303637714,0.25,0.5,1.0,0.25,0.25,0.5,2.75,CVG,Cincinnati/Northern Kentucky International Airport,Kentucky,39.04884,-84.66782
DCA,0.0067947971267715,0.2921658986175115,0.02304147465437788,0.19743422313900577,0.28205128205128205,48.7192429022082,1.0,0.5,1.0,1.0,0.5,0.25,4.25,DCA,Ronald Reagan Washington Ntl Airport,Dist. Of Columbia,38.85144,-77.03772
DEN,0.13636562897276444,0.4609414466130884,0.014374282433983927,0.4108757390586079,0.4901277584204414,37.771445651090964,0.25,1.0,0.25,0.25,0.5,0.5,2.75,DEN,Denver International Airport,Colorado,39.86167,-104.67317
DFW,0.027504837770304543,0.4931693989071038,0.025500910746812388,0.29365999752104227,0.47530864197530864,60.039704524469066,0.25,0.5,0.5,0.25,0.25,0.5,2.25,DFW,Dallas-Fort Worth International Airport,Texas,32.89723,-97.03769
DRO,0.0003319117490496678,0.39622641509433965,0.0,0.10059820493064504,0.0,115.52380952380952,0.5,1.0,1.0,1.0,0.25,0.0,3.75,DRO,Durango-La Plata County Airport,Colorado,37.15153,-107.75378
DSM,0.0019413706076490001,0.46774193548387094,0.016129032258064516,0.13671501498920582,0.5,33.01379310344828,0.25,1.0,1.0,0.25,1.0,0.25,3.75,DSM,Des Moines International Airport,Iowa,41.5,-93.7
DTW,0.008241431353761562,0.49012158054711247,0.028875379939209727,0.30108863377783995,0.39285714285714285,53.78759689922481,0.25,0.5,0.5,0.5,0.25,0.25,2.25,DTW,Detroit Metro Wayne County Airport,Michigan,42.21244,-83.35339
ELP,0.002761756251526481,0.5396825396825397,0.013605442176870748,0.2535671513306957,0.43478260869565216,46.26470588235294,0.25,1.0,0.5,0.25,0.5,0.25,2.75,ELP,El Paso International Airport,Texas,31.80733,-106.37636
FAR,0.0013714843970165516,0.3881278538812785,0.045662100456621,0.12340424116705868,0.2727272727272727,80.72941176470589,0.5,0.25,1.0,1.0,0.25,0.25,3.25,FAR,Hector International Airport,North Dakota,46.92064,-96.81575
FCA,0.00011272474496026452,0.5555555555555556,0.0,0.1111111111111111,0.0,46.2,0.25,1.0,1.0,1.0,0.5,0.0,3.75,FCA,Glacier Park International Airport,Montana,48.3105,-114.256
FLL,0.013664744083516511,0.5384967919340055,0.038038496791934,0.3096005597560633,0.5652173913043478,58.38808510638298,0.25,0.25,0.5,0.25,0.25,0.5,2.0,FLL,Fort Lauderdale/Hollywood International Airport,Florida,26.07167,-80.14969
FSD,0.0015029965994701937,0.4375,0.020833333333333332,0.0584050033365664,0.4,43.21904761904762,0.5,0.5,1.0,0.5,0.5,0.25,3.25,FSD,Joe Foss Field,South Dakota,43.58202,-96.74192
GEG,0.0004571614656721839,0.5753424657534246,0.0410958904109589,0.2002034065102184,0.5,47.595238095238095,0.25,0.25,1.0,0.25,0.5,0.0,2.25,GEG,Spokane International Airport,Washington,47.61903,-117.53522
GJT,0.0001816120891026484,0.3448275862068966,0.034482758620689655,0.125,0.0,40.7,0.5,0.25,1.0,1.0,0.5,0.0,3.25,GJT,Grand Junction Regional Airport,Colorado,39.12242,-108.52675
GRB,0.0011460349070960226,0.33879781420765026,0.03825136612021858,0.10391771364355917,0.3333333333333333,43.75806451612903,0.5,0.25,1.0,0.5,0.5,0.0,2.75,GRB,Green Bay/Austin Straubel International Airport,Wisconsin,44.48463,-88.12971
GRR,0.003826378842817868,0.4206219312602291,0.04091653027823241,0.1444246647617368,0.5652173913043478,51.75486381322957,0.5,0.25,1.0,0.25,0.25,0.25,2.5,GRR,Gerald R Ford International Airport,Michigan,42.88083,-85.52281
HOU,0.0037512290128443584,0.669449081803005,0.025041736227045076,0.19634660176501417,0.5333333333333333,48.78304239401496,0.25,0.5,1.0,0.25,0.5,0.25,2.75,HOU,William P Hobby Airport,Texas,29.6458,-95.27723
HRL,0.0004383740081788065,0.32857142857142857,0.014285714285714285,0.1606516290726817,0.5,46.47826086956522,1.0,1.0,1.0,0.25,0.5,0.0,3.75,HRL,Valley International Airport,Texas,26.22711,-97.65514
HSV,0.00028807434823178714,0.43478260869565216,0.043478260869565216,0.4084939668174962,0.0,45.15,0.5,0.25,0.25,1.0,0.5,0.0,2.5,HSV,Huntsville International-Carl T Jones Field,Alabama,34.6372,-86.77505
IAH,0.007865682203894013,0.5660828025477707,0.014331210191082803,0.1782949265695993,0.5,63.09985935302391,0.25,1.0,1.0,0.25,0.25,0.25,3.0,IAH,George Bush Intcntl/Houston Airport,Texas,29.98444,-95.34144
ILG,0.00013777468828476776,0.6363636363636364,0.13636363636363635,0.0011627906976744186,0.0,46.357142857142854,0.25,0.25,1.0,1.0,0.5,0.0,3.0,ILG,New Castle Airport,Delaware,39.67871,-75.60663
IND,0.004314852737645681,0.49782293178519593,0.033381712626995644,0.17494907350587222,0.5714285714285714,49.965014577259474,0.25,0.25,1.0,0.25,0.5,0.25,2.5,IND,Indianapolis International Airport,Indiana,39.71731,-86.29464
ISP,0.010896725346158905,0.4517241379310345,0.03620689655172414,0.21114627538885386,0.4262295081967213,55.22773536895674,0.25,0.25,0.5,0.5,0.25,0.5,2.25,ISP,Long Island Mac Arthur Airport,New York,40.79614,-73.10067
JAX,0.0038201163569867424,0.38688524590163936,0.014754098360655738,0.15032116653744576,0.4230769230769231,48.20338983050848,0.5,1.0,1.0,0.5,0.5,0.25,3.75,JAX,Jacksonville International Airport,Florida,30.49405,-81.68785
LAS,0.10556046116945661,0.4923469387755102,0.01477218794494542,0.43911338139578393,0.5067466266866567,41.553078684178814,0.25,1.0,0.25,0.25,0.5,0.5,2.75,LAS,Harry Reid International Airport,Nevada,36.08004,-115.15223
LGA,0.0067947971267715,0.584331797235023,0.04516129032258064,0.16606668629569674,0.2894736842105263,61.31230283911672,0.25,0.25,1.0,1.0,0.25,0.25,3.0,LGA,Laguardia Airport,New York,40.77725,-73.87261
LIT,0.0015969338869370809,0.41568627450980394,0.023529411764705882,0.13332984779875084,0.625,36.9622641509434,0.5,0.5,1.0,0.25,1.0,0.25,3.5,LIT,Bill And Hillary Clinton Ntl/Adams Field,Arkansas,34.72944,-92.22478
MCI,0.0027742812231887327,0.5033860045146726,0.022573363431151242,0.14256856969565457,0.4,48.05829596412556,0.25,0.5,1.0,0.5,0.5,0.25,3.0,MCI,Kansas City International Airport,Missouri,39.29761,-94.71389
MCO,0.11672647340635392,0.5486882343473363,0.0322442191104673,0.41070785753779904,0.5128552097428958,50.63391023760634,0.25,0.25,0.25,0.25,0.5,0.5,2.0,MCO,Orlando International Airport,Florida,28.42939,-81.309
MDT,0.0008015981863841033,0.484375,0.046875,0.1250728007692133,0.5,50.32258064516129,0.25,0.25,1.0,0.25,0.5,0.0,2.25,MDT,Harrisburg International Airport,Pennsylvania,40.19319,-76.76262
MDW,0.02071630312936417,0.5405078597339782,0.02720677146311971,0.23030504953788353,0.5,47.46420581655481,0.25,0.5,0.5,0.25,0.5,0.5,2.5,MDW,Chicago Midway International Airport,Illinois,41.78597,-87.75242
MEM,0.0029433683406291295,0.548936170212766,0.02127659574468085,0.23929041802423479,0.47368421052631576,40.98837209302326,0.25,0.5,0.5,0.25,0.5,0.25,2.25,MEM,Memphis International Airport,Tennessee,35.04241,-89.97668
MIA,0.018587057946781397,0.465633423180593,0.017857142857142856,0.36943139212502873,0.43243243243243246,51.937047756874094,0.25,0.5,0.25,0.25,0.25,0.5,2.0,MIA,Miami International Airport,Florida,25.79536,-80.29012
MKE,0.004051828332738397,0.49149922720247297,0.03245749613601236,0.17807869229722492,0.5416666666666666,60.405660377358494,0.25,0.25,1.0,0.25,0.25,0.25,2.25,MKE,General Mitchell International Airport,Wisconsin,42.94693,-87.89706
MSN,0.0015656214577814517,0.468,0.024,0.23051952687984506,0.5,63.495726495726494,0.25,0.5,0.5,0.25,0.25,0.25,2.0,MSN,Dane County Regional/Truax Field,Wisconsin,43.13988,-89.3375
MSO,0.0002567619190761581,0.6341463414634146,0.0,0.1535490826585517,1.0,33.61538461538461,0.25,1.0,1.0,0.25,1.0,0.0,3.5,MSO,Missoula Montana Airport,Montana,46.91631,-114.09056
MSP,0.0033128550046655518,0.3818525519848771,0.026465028355387523,0.10952616980898845,0.2,44.5,0.5,0.5,1.0,1.0,0.5,0.25,3.75,MSP,Minneapolis-St Paul International/Wold-Chamberlain Airport,Minnesota,44.88197,-93.22178
MSY,0.005479675102235081,0.4502857142857143,0.02057142857142857,0.152972210604872,0.5454545454545454,48.89340101522843,0.25,0.5,1.0,0.25,0.5,0.25,2.75,MSY,Louis Armstrong New Orleans International Airport,Louisiana,29.99328,-90.25903
MYR,0.000745235813903971,0.33613445378151263,0.008403361344537815,0.21631508431421154,0.0,67.675,0.5,1.0,0.5,1.0,0.25,0.0,3.25,MYR,Myrtle Beach International Airport,South Carolina,33.67974,-78.92832
OAK,0.0037637539845066102,0.46755407653910147,0.013311148086522463,0.1535517880452622,0.5,46.61565836298932,0.25,1.0,1.0,0.25,0.5,0.25,3.25,OAK,Metro Oakland International Airport,California,37.72125,-122.22114
OKC,0.001559358971950326,0.4497991967871486,0.012048192771084338,0.13644284325120876,0.5714285714285714,62.857142857142854,0.25,1.0,1.0,0.25,0.25,0.25,3.0,OKC,Will Rogers World Airport,Oklahoma,35.39307,-97.60076
OMA,0.002692868907384097,0.4232558139534884,0.020930232558139535,0.13129914203019816,0.4090909090909091,57.252747252747255,0.5,0.5,1.0,0.5,0.25,0.25,3.0,OMA,Eppley Airfield,Nebraska,41.30317,-95.89406
ONT,0.013082332901221811,0.5055050263283868,0.01771182383915749,0.2542181695133367,0.5930232558139535,45.46590909090909,0.25,0.5,0.5,0.25,0.5,0.5,2.5,ONT,Ontario International Airport,California,34.05601,-117.60119
ORD,0.004865951490784752,0.5019305019305019,0.036036036036036036,0.3702460956160105,0.5833333333333334,78.34102564102564,0.25,0.25,0.25,0.25,0.25,0.25,1.5,ORD,Chicago O'Hare International Airport,Illinois,41.97694,-87.90815
ORF,0.0027805437090198584,0.42792792792792794,0.04279279279279279,0.14666501327844125,0.45,50.584210526315786,0.5,0.25,1.0,0.25,0.5,0.25,2.75,ORF,Norfolk International Airport,Virginia,36.8946,-76.20123
PBI,0.005385737814768194,0.5848837209302326,0.05,0.2706611465267683,0.6571428571428571,56.1013916500994,0.25,0.25,0.5,0.25,0.25,0.25,1.75,PBI,Palm Beach International Airport,Florida,26.68316,-80.09559
PDX,0.004596664600046343,0.48501362397820164,0.02452316076294278,0.11139040205189801,0.5384615384615384,47.912921348314605,0.25,0.5,1.0,0.25,0.5,0.25,2.75,PDX,Portland International Airport,Oregon,45.58871,-122.59687
PHL,0.05567976152453955,0.4383084017545833,0.02114497806770892,0.37804836529500563,0.4119318181818182,56.10546574287914,0.5,0.5,0.25,0.5,0.25,0.5,2.5,PHL,Philadelphia International Airport,Pennsylvania,39.87208,-75.24066
PHX,0.034731746419423726,0.3999278759466282,0.018031013342949875,0.29082511977174397,0.46396396396396394,48.95401262398557,0.5,0.5,0.5,0.25,0.5,0.5,2.75,PHX,Phoenix Sky Harbor International Airport,Arizona,33.43428,-112.01158
PIT,0.0011648223645894002,0.478494623655914,0.03225806451612903,0.16881036028674043,0.6,43.69662921348315,0.25,0.25,1.0,0.25,0.5,0.0,2.25,PIT,Pittsburgh International Airport,Pennsylvania,40.49142,-80.23269
PNS,0.0012524971662251614,0.455,0.03,0.244447152978778,0.4,41.79120879120879,0.25,0.5,0.5,0.5,0.5,0.0,2.25,PNS,Pensacola International Airport,Florida,30.47342,-87.18661
PVD,0.003112455458069526,0.5855130784708249,0.04225352112676056,0.1800851266214066,0.55,50.49484536082474,0.25,0.25,1.0,0.25,0.5,0.25,2.5,PVD,Rhode Island Tf Green International Airport,Rhode Island,41.72233,-71.42772
PWM,0.00143410925532781,0.5152838427947598,0.07423580786026202,0.1884065329772307,0.5,47.86440677966102,0.25,0.25,1.0,0.25,0.5,0.25,2.5,PWM,Portland International Jetport Airport,Maine,43.64564,-70.30862
RDU,0.017960809363668815,0.3723849372384937,0.021966527196652718,0.26925750914843605,0.33620689655172414,53.99438202247191,0.5,0.5,0.5,0.5,0.25,0.5,2.75,RDU,Raleigh-Durham International Airport,North Carolina,35.87764,-78.78747
RNO,0.0009894727613178776,0.4873417721518987,0.03164556962025317,0.17400019912547982,0.3333333333333333,43.246753246753244,0.25,0.25,1.0,0.5,0.5,0.0,2.5,RNO,Reno/Tahoe International Airport,Nevada,39.49911,-119.76811
ROC,0.002141770154245026,0.52046783625731,0.038011695906432746,0.27174995451711814,0.1875,52.646067415730336,0.25,0.25,0.5,1.0,0.25,0.25,2.5,ROC,Frederick Douglass/Greater Rochester International Airport,New York,43.11914,-77.67187
RSW,0.01230578465816221,0.44681933842239185,0.0539440203562341,0.1971635217197379,0.3333333333333333,56.34396355353075,0.25,0.25,1.0,0.5,0.25,0.5,2.75,RSW,Southwest Florida International Airport,Florida,26.5,-81.8
SAN,0.012556284091407244,0.41895261845386533,0.0199501246882793,0.18366134640117893,0.5,52.99285714285714,0.5,0.5,1.0,0.25,0.25,0.5,3.0,SAN,San Diego International Airport,California,32.73356,-117.18966
SAT,0.006124711142841039,0.47443762781186094,0.03885480572597137,0.18396019420619755,0.43243243243243246,43.1875,0.25,0.25,1.0,0.25,0.5,0.25,2.5,SAT,San Antonio International Airport,Texas,29.53396,-98.46906
SAV,0.00038827412152980003,0.532258064516129,0.016129032258064516,0.12542008253149292,0.0,49.06060606060606,0.25,1.0,1.0,1.0,0.5,0.0,3.75,SAV,Savannah/Hilton Head International Airport,Georgia,32.12758,-81.20214
SDF,0.00041332406485430326,0.3787878787878788,0.030303030303030304,0.32405273288004083,0.4,25.76,0.5,0.25,0.5,0.5,1.0,0.0,2.75,SDF,Louisville Muhammad Ali International Airport,Kentucky,38.17408,-85.73649
SEA,0.0039015286727913778,0.6051364365971108,0.014446227929373997,0.24005913682305938,0.6538461538461539,43.04774535809018,0.25,1.0,0.5,0.25,0.5,0.25,2.75,SEA,Seattle-Tacoma International Airport,Washington,47.44989,-122.31178
SFO,0.015480864974542995,0.4267799352750809,0.0186084142394822,0.2185940062578361,0.31683168316831684,53.780094786729855,0.5,0.5,0.5,0.5,0.25,0.5,2.75,SFO,San Francisco International Airport,California,37.61881,-122.37542
SJU,0.022451011704586018,0.4711297071129707,0.029288702928870293,0.2825947338927687,0.45588235294117646,56.80284191829485,0.25,0.5,0.5,0.25,0.25,0.5,2.25,SJU,Luis Munoz Marin International Airport,Puerto Rico,18.4394,-66.00213
SLC,0.008103656665476794,0.49613601236476046,0.012364760432766615,0.20704052830219818,0.5961538461538461,55.15732087227414,0.25,1.0,0.5,0.25,0.25,0.25,2.5,SLC,Salt Lake City International Airport,Utah,40.78839,-111.97777
SMF,0.0031312429155629035,0.604,0.02,0.16983311455918074,0.7142857142857143,34.44039735099338,0.25,0.5,1.0,0.25,1.0,0.25,3.25,SMF,Sacramento International Airport,California,38.69544,-121.59078
SNA,0.007364683337403949,0.5068027210884354,0.01870748299319728,0.14780851629720135,0.7209302325581395,40.51006711409396,0.25,0.5,1.0,0.25,0.5,0.25,2.75,SNA,John Wayne/Orange County Airport,California,33.67566,-117.86823
SRQ,0.0007201858705794678,0.5652173913043478,0.043478260869565216,0.3448538752118166,0.0,50.49230769230769,0.25,0.25,0.25,1.0,0.5,0.0,2.25,SRQ,Sarasota/Bradenton International Airport,Florida,27.39544,-82.55439
STL,0.00787194468972514,0.4630071599045346,0.02545743834526651,0.26754668012279387,0.46,54.00687285223368,0.25,0.5,0.5,0.25,0.25,0.25,2.0,STL,St Louis Lambert International Airport,Missouri,38.7487,-90.37003
STT,0.0005009988664900646,0.425,0.5,0.4929138295328392,0.75,61.11764705882353,0.5,0.25,0.25,0.25,0.25,0.0,1.5,STT,Cyril E King Airport,Virgin Islands,18.33731,-64.97333
SWF,0.0025425692474370775,0.5714285714285714,0.046798029556650245,0.15050562515986482,0.5294117647058824,54.12931034482759,0.25,0.25,1.0,0.25,0.25,0.25,2.25,SWF,New York Stewart International Airport,New York,41.50411,-74.10483
SYR,0.0027492312798642294,0.43507972665148065,0.03644646924829157,0.1507501320480061,0.5714285714285714,58.303664921465966,0.5,0.25,1.0,0.25,0.25,0.25,2.5,SYR,Syracuse Hancock International Airport,New York,43.11119,-76.10631
TPA,0.031638078418847575,0.4237925574030087,0.029493269992082342,0.3434469599453347,0.44559585492227977,44.85520784680056,0.5,0.5,0.25,0.25,0.5,0.5,2.5,TPA,Tampa International Airport,Florida,27.97547,-82.53325
TTN,0.01303849550040393,0.39865513928914503,0.04803073967339097,0.14972904731723854,0.36923076923076925,53.74578313253012,0.5,0.25,1.0,0.5,0.25,0.5,3.0,TTN,Trenton Mercer Airport,New Jersey,40.27669,-74.81347
TYS,0.001490471627807942,0.3865546218487395,0.012605042016806723,0.11774953956737877,0.5384615384615384,47.619565217391305,0.5,1.0,1.0,0.25,0.5,0.25,3.5,TYS,Mc Ghee Tyson Airport,Tennessee,35.81109,-83.99407
XNA,0.0016470337735860873,0.49049429657794674,0.022813688212927757,0.1506800455702811,0.2727272727272727,62.52713178294574,0.25,0.5,1.0,1.0,0.25,0.25,3.25,XNA,Northwest Arkansas Ntl Airport,Arkansas,36.28158,-94.30777
