Origin,Percentage_airline_flights,percent_delayed,percent_diverted_cancelled,PercentAirlineFault,HolidayPercentDelayed,HowExtremeDelay,ScoreFrom_percent_delayed,ScoreFrom_percent_diverted_cancelled,ScoreFrom_PercentAirlineFault,ScoreFrom_HolidayPercentDelayed,ScoreFrom_HowExtremeDelay,ScoreFrom_Size,TotalScore,IATA,Name,State,Latitude,Longitude
ABQ,0.0007810260819719118,0.6605504587155964,0.01834862385321101,0.17055007004743947,0.3333333333333333,48.013888888888886,0.25,0.5,1.0,0.5,0.5,0.0,2.75,ABQ,Albuquerque International Sunport Airport,New Mexico,35.03893,-106.60826
ACK,0.0029163083978217255,0.3501228501228501,0.04176904176904177,0.13514503234967762,0.25,61.80701754385965,0.5,0.25,1.0,1.0,0.25,0.25,3.25,ACK,Nantucket Memorial Airport,Massachusetts,41.3,-70.1
ALB,0.0024290627687016337,0.4528023598820059,0.028023598820058997,0.2391626444551841,0.5555555555555556,67.27687296416939,0.25,0.5,0.5,0.25,0.25,0.0,1.75,ALB,Albany International Airport,New York,42.74912,-73.80198
ATL,0.008297506448839208,0.5526770293609672,0.018998272884283247,0.42910824813589593,0.5263157894736842,56.48515625,0.25,0.5,0.25,0.25,0.25,0.25,1.75,ATL,Hartsfield - Jackson Atlanta International Airport,Georgia,33.6367,-84.42786
AUS,0.004438950988822012,0.4891041162227603,0.025020177562550445,0.360459735831173,0.5111111111111111,51.886138613861384,0.25,0.5,0.25,0.25,0.25,0.25,1.75,AUS,Austin-Bergstrom International Airport,Texas,30.19453,-97.66988
AVL,0.0002543708799082832,0.5492957746478874,0.014084507042253521,0.30177902328454936,0.25,64.1025641025641,0.25,1.0,0.5,1.0,0.25,0.0,3.0,AVL,Asheville Regional Airport,North Carolina,35.43611,-82.54205
BDL,0.011317712811693895,0.45900601456157014,0.030705919594808485,0.37293546346875905,0.40336134453781514,55.677241379310345,0.25,0.25,0.25,0.5,0.25,0.5,2.0,BDL,Bradley International Airport,Connecticut,41.93903,-72.68432
BNA,0.008910146173688736,0.4796944109368717,0.04141535987133092,0.3178891004796118,0.5930232558139535,59.46102263202012,0.25,0.25,0.5,0.25,0.25,0.25,1.75,BNA,Nashville International Airport,Tennessee,36.12447,-86.67818
BOS,0.1639975637718544,0.410202075368651,0.02667394866193337,0.48857623515178533,0.45240893066980026,48.47829791766523,0.5,0.5,0.25,0.25,0.5,0.5,2.5,BOS,General Edward Lawrence Logan International Airport,Massachusetts,42.36294,-71.00639
BQN,0.003940957294353683,0.5163636363636364,0.022727272727272728,0.22404062753997064,0.6730769230769231,50.33098591549296,0.25,0.5,0.5,0.25,0.5,0.25,2.25,BQN,Rafael Hernandez Airport,Puerto Rico,18.49486,-67.12944
BTV,0.0032172542275723704,0.3418708240534521,0.045657015590200446,0.3195624198871732,0.26666666666666666,46.79804560260586,0.5,0.25,0.5,1.0,0.5,0.25,3.0,BTV,Patrick Leahy Burlington International Airport,Vermont,44.5,-73.2
BUF,0.01004585841215248,0.3434379457917261,0.052781740370898715,0.2699352795245593,0.2653061224489796,55.23364485981308,0.5,0.25,0.5,1.0,0.25,0.25,2.75,BUF,Buffalo Niagara International Airport,New York,42.94043,-78.73057
BUR,0.001590713671539123,0.4954954954954955,0.09234234234234234,0.2882747385841398,0.5625,56.722727272727276,0.25,0.25,0.5,0.25,0.25,0.0,1.5,BUR,Bob Hope Airport,California,34.20069,-118.35867
BWI,0.0027120951562052166,0.3157199471598415,0.015852047556142668,0.18572695234800857,0.4,45.42259414225941,1.0,1.0,1.0,0.5,0.5,0.25,4.25,BWI,Baltimore/Washington International Thurgood Marshall Airport,Maryland,39.17573,-76.66899
BZN,0.0005194898251648037,0.5310344827586206,0.027586206896551724,0.1696547014017413,0.5,53.0,0.25,0.5,1.0,0.25,0.25,0.0,2.25,BZN,Bozeman Yellowstone International Airport,Montana,45.77724,-111.15026
CHS,0.009970621954714818,0.4728710025152713,0.03880704275961193,0.303063393438113,0.5535714285714286,58.047872340425535,0.25,0.25,0.5,0.25,0.25,0.25,1.75,CHS,Charleston Afb/International Airport,South Carolina,32.89864,-80.04053
CLE,0.0033892232731441672,0.35412262156448204,0.02854122621564482,0.4413774664852848,0.5151515151515151,42.474626865671645,0.5,0.5,0.25,0.25,0.5,0.25,2.25,CLE,Cleveland-Hopkins International Airport,Ohio,41.40941,-81.85469
CLT,0.002586701060475781,0.34349030470914127,0.023545706371191136,0.2770412237702765,0.41379310344827586,50.63709677419355,0.5,0.5,0.5,0.5,0.5,0.0,2.5,CLT,Charlotte/Douglas International Airport,North Carolina,35.21375,-80.94906
DCA,0.03737102321582115,0.396702137858307,0.030006710765986003,0.37061652790327887,0.4498567335243553,50.13943934267762,0.5,0.5,0.25,0.25,0.5,0.5,2.5,DCA,Ronald Reagan Washington Ntl Airport,Dist. Of Columbia,38.85144,-77.03772
DEN,0.006724706219547148,0.5316995205114544,0.022376132125732553,0.23116087273839234,0.6301369863013698,74.11723446893788,0.25,0.5,0.5,0.25,0.25,0.25,2.0,DEN,Denver International Airport,Colorado,39.86167,-104.67317
DFW,0.002586701060475781,0.3670360110803324,0.019390581717451522,0.4099246381539011,0.37037037037037035,70.5433962264151,0.5,0.5,0.25,0.5,0.25,0.0,2.0,DFW,Dallas-Fort Worth International Airport,Texas,32.89723,-97.03769
DTW,0.006391516193751791,0.45964125560538116,0.026905829596412557,0.4138978953596082,0.43636363636363634,52.67926829268293,0.25,0.5,0.25,0.25,0.25,0.25,1.75,DTW,Detroit Metro Wayne County Airport,Michigan,42.21244,-83.35339
EWR,0.028328317569504154,0.4063488048564563,0.031617554066017454,0.3992212515061452,0.41721854304635764,51.6171802054155,0.5,0.25,0.25,0.5,0.25,0.5,2.25,EWR,Newark Liberty International Airport,New Jersey,40.69248,-74.16869
EYW,0.0006627973631413012,0.5351351351351351,0.13513513513513514,0.4772096504394964,0.875,51.19191919191919,0.25,0.25,0.25,0.25,0.5,0.0,1.5,EYW,Key West International Airport,Florida,24.55612,-81.75996
FLL,0.06562052163943824,0.4944856955667176,0.026861760209652762,0.46031073655245563,0.5763411279229711,52.092304295020426,0.25,0.5,0.25,0.25,0.25,0.5,2.0,FLL,Fort Lauderdale/Hollywood International Airport,Florida,26.07167,-80.14969
HDN,0.00018629979936944684,0.3269230769230769,0.0,0.461441156153521,0.0,233.76470588235293,1.0,1.0,0.25,1.0,0.25,0.0,3.5,HDN,Yampa Valley Airport,Colorado,40.48119,-107.21767
HPN,0.017573086844368015,0.36636085626911313,0.04159021406727829,0.3717117163004283,0.3388888888888889,53.26711185308848,0.5,0.25,0.25,0.5,0.25,0.5,2.25,HPN,Westchester County Airport,New York,41.06695,-73.70757
HYA,0.00044425336772714244,0.5483870967741935,0.04838709677419355,0.08718173234810422,0.3333333333333333,43.73529411764706,0.25,0.25,1.0,0.5,0.5,0.0,2.5,HYA,Cape Cod Gateway Airport,Massachusetts,41.66934,-70.28036
IAH,0.0029198910862711378,0.49447852760736194,0.025766871165644172,0.2692749614297252,0.6,69.05210918114143,0.25,0.5,0.5,0.25,0.25,0.25,2.0,IAH,George Bush Intcntl/Houston Airport,Texas,29.98444,-95.34144
JAX,0.011342791630839783,0.46146557169930513,0.04042956411876184,0.355893223943375,0.48091603053435117,61.12594113620808,0.25,0.25,0.25,0.25,0.25,0.5,1.75,JAX,Jacksonville International Airport,Florida,30.49405,-81.68785
JFK,0.17100171969045572,0.49578881206788183,0.02763461135554159,0.5223027593776776,0.4666283084004603,52.64177653820149,0.25,0.5,0.25,0.25,0.25,0.5,2.0,JFK,John F Kennedy International Airport,New York,40.63993,-73.77869
LAS,0.011840785325308112,0.5664145234493192,0.019364599092284416,0.2960540312322265,0.6440677966101694,61.0625,0.25,0.5,0.5,0.25,0.25,0.5,2.25,LAS,Harry Reid International Airport,Nevada,36.08004,-115.15223
LAX,0.04016193751791344,0.40811775200713646,0.009812667261373774,0.42253264528885737,0.45255474452554745,41.4751912568306,0.5,1.0,0.25,0.25,0.5,0.5,3.0,LAX,Los Angeles International Airport,California,33.9425,-118.40805
LGA,0.05755588993981083,0.43629007158418925,0.04263927793339558,0.3428431258342296,0.4095744680851064,54.91054358681695,0.5,0.25,0.25,0.5,0.25,0.5,2.25,LGA,Laguardia Airport,New York,40.77725,-73.87261
MCI,0.0026117798796216683,0.39231824417009603,0.0205761316872428,0.30422802770609886,0.3333333333333333,56.39510489510489,0.5,0.5,0.5,0.5,0.25,0.25,2.5,MCI,Kansas City International Airport,Missouri,39.29761,-94.71389
MCO,0.06135712238463743,0.5418661683989257,0.03707812682471097,0.42119679124192677,0.5912408759124088,55.656788793103445,0.25,0.25,0.25,0.25,0.25,0.5,1.75,MCO,Orlando International Airport,Florida,28.42939,-81.309
MIA,0.011335626253940956,0.4608091024020228,0.029393173198482933,0.3010227504552831,0.5121951219512195,54.53429355281207,0.25,0.5,0.5,0.25,0.25,0.5,2.25,MIA,Miami International Airport,Florida,25.79536,-80.29012
MKE,0.0026117798796216683,0.3662551440329218,0.023319615912208505,0.2100694079756168,0.25925925925925924,60.13857677902622,0.5,0.5,0.5,1.0,0.25,0.25,3.0,MKE,General Mitchell International Airport,Wisconsin,42.94693,-87.89706
MSP,0.003564775007165377,0.47738693467336685,0.034170854271356785,0.33684475401420305,0.43243243243243246,62.20421052631579,0.25,0.25,0.25,0.25,0.25,0.25,1.5,MSP,Minneapolis-St Paul International/Wold-Chamberlain Airport,Minnesota,44.88197,-93.22178
MSY,0.006513327601031814,0.5077007700770076,0.02695269526952695,0.3114039493006949,0.5571428571428572,54.06933911159263,0.25,0.5,0.5,0.25,0.25,0.25,2.0,MSY,Louis Armstrong New Orleans International Airport,Louisiana,29.99328,-90.25903
MVY,0.0016659501289767841,0.46236559139784944,0.030107526881720432,0.1754457497944715,0.35294117647058826,57.93023255813954,0.25,0.25,1.0,0.5,0.25,0.0,2.25,MVY,Martha's Vineyard Airport,Massachusetts,41.39342,-70.61387
ONT,0.0013076812840355403,0.5506849315068493,0.01643835616438356,0.41942982513558197,0.6428571428571429,64.71144278606965,0.25,0.5,0.25,0.25,0.25,0.0,1.5,ONT,Ontario International Airport,California,34.05601,-117.60119
ORD,0.004299226139294927,0.35833333333333334,0.030833333333333334,0.2816698002161038,0.35,80.45581395348837,0.5,0.25,0.5,0.5,0.25,0.25,2.25,ORD,Chicago O'Hare International Airport,Illinois,41.97694,-87.90815
ORH,0.003912295786758384,0.35714285714285715,0.06318681318681318,0.2754768375059093,0.38461538461538464,56.853846153846156,0.5,0.25,0.5,0.5,0.25,0.25,2.25,ORH,Worcester Regional Airport,Massachusetts,42.26714,-71.87561
PBI,0.029148753224419604,0.4358407079646018,0.036135693215339236,0.2925532972713898,0.5090361445783133,54.9478285391991,0.5,0.25,0.5,0.25,0.25,0.5,2.25,PBI,Palm Beach International Airport,Florida,26.68316,-80.09559
PDX,0.001110633419317856,0.535483870967742,0.016129032258064516,0.23702752507587527,0.6666666666666666,69.42771084337349,0.25,1.0,0.5,0.25,0.25,0.0,2.25,PDX,Portland International Airport,Oregon,45.58871,-122.59687
PHL,0.004593006592146747,0.26521060842433697,0.02418096723868955,0.2883690680385563,0.40816326530612246,46.970588235294116,1.0,0.5,0.5,0.5,0.5,0.25,3.25,PHL,Philadelphia International Airport,Pennsylvania,39.87208,-75.24066
PHX,0.004130839782172542,0.603642671292281,0.02168256721595837,0.2919487217606841,0.5531914893617021,68.80316091954023,0.25,0.5,0.5,0.25,0.25,0.25,2.0,PHX,Phoenix Sky Harbor International Airport,Arizona,33.43428,-112.01158
PIT,0.004675408426483233,0.2835249042145594,0.026053639846743294,0.23345555688602757,0.32653061224489793,42.86486486486486,1.0,0.5,0.5,0.5,0.5,0.25,3.25,PIT,Pittsburgh International Airport,Pennsylvania,40.49142,-80.23269
PSE,0.0024183147033533963,0.4237037037037037,0.035555555555555556,0.13991027680093734,0.4666666666666667,61.03146853146853,0.5,0.25,1.0,0.25,0.25,0.0,2.25,PSE,Mercedita Airport,Puerto Rico,18.00878,-66.56452
PSP,0.000702206936084838,0.6530612244897959,0.05102040816326531,0.35088810629982325,0.7142857142857143,55.6953125,0.25,0.25,0.25,0.25,0.25,0.0,1.25,PSP,Palm Springs International Airport,California,33.82967,-116.50669
PVD,0.003958870736600745,0.45701357466063347,0.03167420814479638,0.1842018400500861,0.5,57.38019801980198,0.25,0.25,1.0,0.25,0.25,0.25,2.25,PVD,Rhode Island Tf Green International Airport,Rhode Island,41.72233,-71.42772
PWM,0.0011822871883061048,0.3878787878787879,0.051515151515151514,0.21109684636773957,0.4166666666666667,56.453125,0.5,0.25,0.5,0.5,0.25,0.0,2.0,PWM,Portland International Jetport Airport,Maine,43.64564,-70.30862
RDU,0.010769561478933792,0.47704590818363274,0.03127079174983367,0.36061981744562294,0.6,49.66596931659693,0.25,0.25,0.25,0.25,0.5,0.25,1.75,RDU,Raleigh-Durham International Airport,North Carolina,35.87764,-78.78747
RIC,0.006703210088850674,0.3655799037947622,0.024585783003741316,0.31601363937134186,0.44285714285714284,58.00438596491228,0.5,0.5,0.5,0.25,0.25,0.25,2.25,RIC,Richmond International Airport,Virginia,37.50518,-77.31974
RNO,0.0017662654055603324,0.6105476673427992,0.02434077079107505,0.20372778440247044,0.5833333333333334,91.45182724252491,0.25,0.5,1.0,0.25,0.25,0.0,2.25,RNO,Reno/Tahoe International Airport,Nevada,39.49911,-119.76811
ROC,0.003607767268558326,0.3723932472691162,0.03773584905660377,0.32252948590895825,0.43243243243243246,52.21066666666667,0.5,0.25,0.5,0.25,0.25,0.25,2.0,ROC,Frederick Douglass/Greater Rochester International Airport,New York,43.11914,-77.67187
RSW,0.015541702493551161,0.4190871369294606,0.06339326878745966,0.24373225211256883,0.4088050314465409,63.052805280528055,0.5,0.25,0.5,0.5,0.25,0.5,2.5,RSW,Southwest Florida International Airport,Florida,26.5,-81.8
SAN,0.0067784465462883345,0.5243128964059197,0.03171247357293869,0.3385408608751571,0.5,50.988911290322584,0.25,0.25,0.25,0.25,0.5,0.25,1.75,SAN,San Diego International Airport,California,32.73356,-117.18966
SAT,0.0026117798796216683,0.5075445816186557,0.023319615912208505,0.23916105407902483,0.5925925925925926,54.68648648648649,0.25,0.5,0.5,0.25,0.25,0.25,2.0,SAT,San Antonio International Airport,Texas,29.53396,-98.46906
SAV,0.006456004585841215,0.4556048834628191,0.049944506104328525,0.3140918951209216,0.5285714285714286,59.406820950060904,0.25,0.25,0.5,0.25,0.25,0.25,1.75,SAV,Savannah/Hilton Head International Airport,Georgia,32.12758,-81.20214
SEA,0.0033068214388076813,0.6468039003250271,0.015167930660888408,0.4548403017974187,0.7878787878787878,59.94472361809045,0.25,1.0,0.25,0.25,0.25,0.25,2.25,SEA,Seattle-Tacoma International Airport,Washington,47.44989,-122.31178
SFO,0.01879120091716824,0.34089609151572925,0.0076263107721639654,0.30022899970158845,0.4797979797979798,42.39373601789709,0.5,1.0,0.5,0.25,0.5,0.5,3.25,SFO,San Francisco International Airport,California,37.61881,-122.37542
SJC,0.0007595299512754371,0.4858490566037736,0.03773584905660377,0.15050507977502328,0.6666666666666666,75.10679611650485,0.25,0.25,1.0,0.25,0.25,0.0,2.0,SJC,Norman Y Mineta San Jose International Airport,California,37.36299,-121.92862
SJU,0.032186873029521355,0.5332813891362422,0.028161175422974177,0.41616377896078527,0.5891891891891892,50.979544980171156,0.25,0.5,0.25,0.25,0.5,0.5,2.25,SJU,Luis Munoz Marin International Airport,Puerto Rico,18.4394,-66.00213
SLC,0.007523645743766122,0.5457142857142857,0.014761904761904763,0.2318885838066331,0.5476190476190477,59.93717277486911,0.25,1.0,0.5,0.25,0.25,0.25,2.5,SLC,Salt Lake City International Airport,Utah,40.78839,-111.97777
SMF,0.0016516193751791345,0.5726681127982647,0.021691973969631236,0.30541819505835305,0.5789473684210527,55.29545454545455,0.25,0.5,0.5,0.25,0.25,0.0,1.75,SMF,Sacramento International Airport,California,38.69544,-121.59078
SRQ,0.0033426483233018056,0.5359056806002144,0.04180064308681672,0.27400832095089317,0.6944444444444444,67.626,0.25,0.25,0.5,0.25,0.25,0.25,1.75,SRQ,Sarasota/Bradenton International Airport,Florida,27.39544,-82.55439
STT,0.0029485525938664375,0.425273390036452,0.02916160388821385,0.22377874096437755,0.5882352941176471,58.10285714285714,0.5,0.5,0.5,0.25,0.25,0.25,2.25,STT,Cyril E King Airport,Virgin Islands,18.33731,-64.97333
SYR,0.003815563198624248,0.4450704225352113,0.046948356807511735,0.3316784500101399,0.425,59.55907172995781,0.25,0.25,0.25,0.5,0.25,0.25,1.75,SYR,Syracuse Hancock International Airport,New York,43.11119,-76.10631
TPA,0.018311120664946976,0.42516141655253376,0.027587556251222854,0.34381811408104324,0.5532994923857868,50.98251265531523,0.5,0.5,0.25,0.25,0.5,0.5,2.5,TPA,Tampa International Airport,Florida,27.97547,-82.53325
